City_ID,City,Country,Max Temp,Description,Lat,Lng,Hotel Name
0,San Nicolas,PH,79.79,scattered clouds,18.1725,120.5953,Mira de Polaris Hotel
16,Cidreira,BR,70.72,clear sky,-30.1811,-50.2056,Hotel Castelo
20,Rikitea,PF,79.63,few clouds,-23.1203,-134.9692,Chez Bianca & Benoit
24,Saint-Philippe,RE,85.59,overcast clouds,-21.3585,55.7679,Le Baril
26,Souillac,MU,82.29,overcast clouds,-20.5167,57.5167,Hotel SkylineInn
27,Vaini,TO,84.36,scattered clouds,-21.2,-175.2,Keleti International Resort
29,Hobart,AU,78.26,few clouds,-42.8794,147.3294,Vibe Hotel Hobart
35,Avarua,CK,73.45,moderate rain,-21.2078,-159.775,Paradise Inn
45,Am Timan,TD,75.15,broken clouds,11.0297,20.2827,Nimla
51,Hithadhoo,MV,81.27,light rain,-0.6,73.0833,Pebbles Inn
53,Mount Isa,AU,78.57,light intensity shower rain,-20.7333,139.5,Ibis Styles
55,Bowen,AU,82.56,overcast clouds,-20.0167,148.2333,Whitsunday Sands Resort
57,Atuona,PF,78.85,light rain,-9.8,-139.0333,Pearl Resort
58,Matara,LK,82.81,broken clouds,5.9485,80.5353,Villa Palm Breeze
63,Kavieng,PG,85.44,broken clouds,-2.5744,150.7967,Kavieng Hotel
71,Rong Kwang,TH,84.43,scattered clouds,18.339,100.3174,Hotel
77,Puerto Ayora,EC,76.55,broken clouds,-0.7393,-90.3518,Hostal La Mirada De Solitario George
78,Itarema,BR,76.44,clear sky,-2.9248,-39.9167,Pousada Oásis
85,Rawson,AR,88.5,clear sky,-43.3002,-65.1023,Hotel Deportivo
98,Ko Samui,TH,80.51,scattered clouds,9.5357,99.9357,Nathon Residence
99,Kapaa,US,73.72,light rain,22.0752,-159.319,Pono Kai Resort
104,Esperance,AU,77.63,clear sky,-33.8667,121.9,Hospitality
106,Kayankulam,IN,83.3,scattered clouds,9.1833,76.5,Marvel
116,Vao,NC,77.02,few clouds,-22.6667,167.4833,Nataiwatch
119,Georgetown,MY,87.73,few clouds,5.4112,100.3354,Page 63 hostel
121,Mahebourg,MU,85.24,few clouds,-20.4081,57.7,Grand Bel Air
123,Saint-Pierre,RE,85.68,clear sky,-21.3393,55.4781,Tropic Hotel
126,Cayenne,GF,77.04,broken clouds,4.9333,-52.3333,Central Hôtel
139,Bontang,ID,82.11,overcast clouds,0.1333,117.5,Hotel Sederhana
140,Mar Del Plata,AR,70.88,scattered clouds,-38.0023,-57.5575,Nuevo Ostende
142,New Norfolk,AU,76.91,clear sky,-42.7826,147.0587,Woodbridge on the Derwent
143,Rio Grande,BR,71.71,clear sky,-32.035,-52.0986,Hotel Vila Moura Executivo
156,Calabozo,VE,75.34,clear sky,8.9242,-67.4293,Hotel Plaza Real
158,Port Macquarie,AU,75.88,light rain,-31.4333,152.9167,The Observatory
176,Santa Fe,AR,76.01,overcast clouds,-31.6333,-60.7,Intersur Hotel
184,Tocopilla,CL,70.34,overcast clouds,-22.092,-70.1979,hotel Isidora
187,The Valley,AI,76.86,clear sky,18.217,-63.0578,CeBlue
192,Sabang,ID,80.58,light rain,5.8933,95.3214,Sabang Hill
195,Nicoya,CR,74.66,overcast clouds,10.1483,-85.452,Hotel marianela
200,Alice Springs,AU,88.21,overcast clouds,-23.7,133.8833,Aurora Alice Springs
202,Cockburn Town,TC,76.66,light rain,21.4612,-71.1419,The Salt Raker Inn
205,Laplace,US,71.58,overcast clouds,30.0666,-90.4801,Uncle Sam's Motel
209,Piacabucu,BR,75.83,few clouds,-10.4056,-36.4344,O Leão
212,Progreso,MX,74.1,few clouds,21.2833,-89.6667,Centro Vacacional Obrero CTM
215,Pisco,PE,73.45,clear sky,-13.7,-76.2167,La Portada
216,Kawalu,ID,84.6,overcast clouds,-7.3817,108.2082,Hotel Surya
217,Omboue,GA,76.98,broken clouds,-1.5746,9.2618,Georges Faustin Aurat
226,Mount Gambier,AU,70.36,overcast clouds,-37.8333,140.7667,The Old Mount Gambier Gaol
232,Honiara,SB,81.52,moderate rain,-9.4333,159.95,King Solomon Hotel
238,Soroti,UG,70.41,clear sky,1.7146,33.6111,Paradise Hotel
240,Meulaboh,ID,85.37,scattered clouds,4.1363,96.1285,Hotel Meuligou
243,Culebra,PR,75.29,clear sky,18.303,-65.301,Hotel Kokomo
245,Mapastepec,MX,73.0,clear sky,15.4333,-92.9,Hotel San Diego
248,Isla Aguada,MX,75.47,few clouds,18.7833,-91.4667,Puerto Sabalo Hotel
249,La Fria,VE,73.51,scattered clouds,8.2203,-72.2439,Hotel Nuestra Señora de Coromoto
250,Burnie,AU,71.94,overcast clouds,-41.0667,145.9167,Burnie Central TownHouse Hotel
255,Grand Gaube,MU,85.37,overcast clouds,-20.0064,57.6608,Coco Villa
256,Te Anau,NZ,77.7,overcast clouds,-45.4167,167.7167,Lakeside Motels & Apartments
263,Martapura,ID,86.09,few clouds,-3.4167,114.85,Q-Hotel Grand Dafam
268,Aquiraz,BR,81.18,few clouds,-3.9014,-38.3911,Pousada tia Fabíola
275,Lethem,GY,74.75,few clouds,3.3803,-59.7968,Hotel Amazonas
276,Tarakan,ID,83.7,few clouds,3.3,117.6333,Hotel Dynasty
280,Pokhara,NP,72.9,scattered clouds,28.2333,83.9833,Hotel Annapurna View Sarangkot
284,Faanui,PF,81.27,clear sky,-16.4833,-151.75,Oa Oa Lodge
286,Amuntai,ID,83.59,overcast clouds,-2.4177,115.2494,Grand Balqis Hotel
289,Davila,PH,85.98,broken clouds,18.4726,120.5763,Blue Ridge Beach Resort
293,Miandrivazo,MG,79.79,clear sky,-19.5167,45.4667,Baobab
299,Kalmunai,LK,79.81,broken clouds,7.4167,81.8167,Saji new food
300,Cuamba,MZ,70.93,light rain,-14.8031,36.5372,Pensao Cariaco
304,Bengkulu,ID,84.94,overcast clouds,-3.8004,102.2655,Dena Hotel
305,Divo,CI,71.78,overcast clouds,5.8397,-5.36,HOTEL AMAWOYE ext.
308,Vanimo,PG,83.86,broken clouds,-2.6741,141.3028,CBC Guesthouse
317,Bahia Blanca,AR,79.29,clear sky,-38.7196,-62.2724,Hotel Austral Bahía
321,Inongo,CD,71.24,overcast clouds,-1.95,18.2667,Chez LELE IYOLO
322,Marsh Harbour,BS,74.57,few clouds,26.5412,-77.0636,Lofty Fig Villas
326,Banda Aceh,ID,83.97,scattered clouds,5.5577,95.3222,Hotel 61
329,Bathsheba,BB,74.01,few clouds,13.2167,-59.5167,Atlantis Hotel
331,Rock Sound,BS,76.19,clear sky,24.9,-76.2,Rock Sound Club
333,Port Augusta,AU,76.01,overcast clouds,-32.5,137.7667,Hotel Commonwealth
335,Bella Union,UY,75.4,overcast clouds,-30.2752,-57.6007,Hotel Oriente
340,Dubbo,AU,75.33,light rain,-32.25,148.6167,Blue Gum Motel
342,Sibolga,ID,86.11,overcast clouds,1.7427,98.7792,Hotel Prima Indah
348,Linhares,BR,71.35,overcast clouds,-19.3911,-40.0722,Days Inn Linhares
353,Fomboni,KM,81.57,clear sky,-12.28,43.7425,Mohéli La Plage
362,Namatanai,PG,85.78,broken clouds,-3.6667,152.4333,Namatanai Hotel
364,Soe,ID,77.38,overcast clouds,-9.8607,124.284,DENA
365,Kiama,AU,75.0,light rain,-34.6833,150.8667,Nova Kiama
366,Alappuzha,IN,79.27,scattered clouds,9.49,76.3264,Unnis Hotel
370,Port Blair,IN,82.44,light intensity drizzle,11.6667,92.75,Andaman Ocean Breeze
376,Beira,MZ,86.09,light rain,-19.8436,34.8389,Hotel Savoy
383,Mecca,SA,73.8,clear sky,21.4267,39.8261,Rehab Al Marwa Hotel 1
387,Huarmey,PE,70.84,overcast clouds,-10.0681,-78.1522,Hostal Santa Rosa
391,Puerto Madryn,AR,87.1,clear sky,-42.7692,-65.0385,Hotel Gran Palace
393,Tabou,CI,76.73,overcast clouds,4.423,-7.3528,hôtel le rochet
410,Launceston,AU,78.62,overcast clouds,-41.45,147.1667,Hotel Charles
412,Atambua,ID,81.66,overcast clouds,-9.1061,124.8925,Hotel Matahari
415,Paita,PE,72.09,few clouds,-5.0892,-81.1144,Victor's
428,Mitsamiouli,KM,81.21,overcast clouds,-11.3847,43.2844,Hotel le Paradis
435,Santa Maria,BR,70.23,clear sky,-29.6842,-53.8069,Hotel Morotin
436,Sechura,PE,73.36,clear sky,-5.5569,-80.8222,Hospedaje Claritza
449,Isangel,VU,82.54,heavy intensity rain,-19.55,169.2667,Tanna Lodge
453,Neiafu,TO,84.88,broken clouds,-18.65,-173.9833,Port Wine Guest House
454,Noumea,NC,85.98,broken clouds,-22.2763,166.4572,Hotel Gondwana
464,Akyab,MM,80.44,clear sky,20.15,92.9,Yuzana Aung Motel 1
465,Vila Velha,BR,76.95,scattered clouds,-20.3297,-40.2925,Hotel Prainha
466,Santiago,CL,73.85,clear sky,-33.4569,-70.6483,apart arturo prat
473,Takoradi,GH,78.39,light rain,4.8845,-1.7554,Hillcrest
478,Ratnagiri,IN,79.59,broken clouds,16.9833,73.3,Vihar
479,Iquitos,PE,75.24,broken clouds,-3.7481,-73.2472,Marfil del Amazonas
489,Gizo,SB,78.91,moderate rain,-8.103,156.8419,Gizo Hotel
498,Sinnamary,GF,74.5,scattered clouds,5.3833,-52.95,Hôtel du fleuve
506,Tawau,MY,87.93,broken clouds,4.2498,117.8871,Eden boutique
518,Ilam,NP,71.08,clear sky,26.9167,87.9167,Hotel Pokhereli
523,Florianopolis,BR,72.63,broken clouds,-27.6146,-48.5012,Pousada Caminho da Lagoa
524,Tirupati,IN,76.23,mist,13.65,79.4167,Marasa Sarovar Premiere
526,Mareeba,AU,83.44,light rain,-17.0,145.4333,The Gateway Hotel
527,Tecolutla,MX,71.69,clear sky,20.4833,-97.0167,Hotel Albri by Rotamundos
528,Lao Cai,VN,72.3,clear sky,22.4833,103.95,Bảo Son Hotel
536,Upington,ZA,73.78,clear sky,-28.4478,21.2561,Die Eiland Holiday Ressort
540,Okato,NZ,74.17,moderate rain,-39.2,173.8833,Stony River Boutique Hotel
542,Fare,PF,81.34,clear sky,-16.7,-151.0167,hôtel Maitai Lapita Village
544,Ambulu,ID,81.52,overcast clouds,-8.345,113.6058,Hotel Ambulu
548,Sorong,ID,83.23,light rain,-0.8833,131.25,Hotel Membramo Marina
552,Port-Gentil,GA,78.76,light rain,-0.7193,8.7815,Tara-Mé
554,Sawakin,SD,75.78,broken clouds,19.1059,37.3321,Hotel Halfa
561,Yulara,AU,85.24,overcast clouds,-25.2406,130.9889,Outback Pioneer Hotel & Lodge
563,Saint-Georges,GD,73.08,few clouds,12.0564,-61.7485,Deyna's City Inn
575,Mananara,MG,85.37,broken clouds,-16.1667,49.7667,Chez Roger
587,Pochutla,MX,74.82,clear sky,15.7432,-96.4661,Posada San Jose
588,Maragogi,BR,76.66,few clouds,-9.0122,-35.2225,Pousada Mariluz
596,Namibe,AO,73.81,overcast clouds,-15.1961,12.1522,Hotel Chik Chik Namibe
601,Kismayo,SO,79.93,broken clouds,-0.3582,42.5454,Kismayo Hotel
602,Touros,BR,78.48,few clouds,-5.1989,-35.4608,Pousada Atlântico
620,Ondjiva,AO,70.2,broken clouds,-17.0667,15.7333,Águia Verde Hotel
633,Denpasar,ID,87.46,few clouds,-8.65,115.2167,Hotel Candra Adiguna
634,Poso,ID,85.62,overcast clouds,-1.3959,120.7524,Nusantara
643,Puerto Escondido,MX,76.03,scattered clouds,15.85,-97.0667,Hotel Barlovento
644,Arica,CL,73.63,overcast clouds,-18.475,-70.3042,Hotel Andalucía 
648,Magadi,IN,79.75,overcast clouds,12.9667,77.2333,Udupi Upahara
651,Lakes Entrance,AU,70.16,broken clouds,-37.8811,147.981,Banjo Patterson Motor Inn
